City_ID,City,Country,Max Temp,Current Description,Lat,Lng,Hotel Name
0,Rikitea,PF,75.09,clear sky,-23.12,-134.97,Pension Maro'i
1,Tabou,CI,79.3,broken clouds,4.42,-7.35,hotêl doufoulougou
3,Dolores,AR,70.47,clear sky,-36.31,-57.68,Apart Hotel - Arianos
4,Balao,EC,80.6,broken clouds,-2.92,-79.82,Gilson Stalin Lucas S
6,Kapaa,US,75.2,clear sky,22.08,-159.32,Sheraton Kauai Resort at Coconut Beach
8,Puerto Ayora,EC,77.0,broken clouds,-0.74,-90.35,Finch Bay Galapagos Hotel
12,Solwezi,ZM,71.98,clear sky,-12.17,26.39,Country Lodge Solwezi
14,Vaini,TO,73.4,broken clouds,-21.2,-175.2,Keleti Beach Resort
17,Kahului,US,80.6,clear sky,20.89,-156.47,Maui Seaside Hotel
20,Belmonte,BR,82.4,broken clouds,-15.86,-38.88,Pousada Monte Carmelo O Pão
23,Bandiagara,ML,88.09,clear sky,14.35,-3.61,Hotel de la Falaise
25,Cabo San Lucas,MX,84.99,scattered clouds,22.89,-109.91,Hotel Tesoro Los Cabos
29,Kavaratti,IN,82.8,broken clouds,10.57,72.64,Hotels in Lakshadweep Islands
31,Tautira,PF,82.4,few clouds,-17.73,-149.15,Pension Oaoa
38,Axim,GH,79.54,light rain,4.87,-2.24,AXIM BEACH RESORT AND SPA
42,Paraiso,CR,77.0,scattered clouds,9.84,-83.87,Rinconcito Verde
44,Roebourne,AU,70.59,clear sky,-20.78,117.13,Harding River Caravan Park
46,Araouane,ML,89.64,overcast clouds,18.9,-3.53,
51,Houma,US,72.0,clear sky,29.6,-90.72,Courtyard by Marriott Houma
53,Arraial Do Cabo,BR,71.6,broken clouds,-22.97,-42.03,Pousada Porto Praia
55,Iracoubo,GF,86.23,overcast clouds,5.48,-53.2,Le Gite D Iracoubo
57,Butaritari,KI,81.39,broken clouds,3.07,172.79,Isles Sunset Lodge
62,Victoria,HK,73.0,few clouds,22.29,114.16,Mini Hotel Central
65,Kilindoni,TZ,79.3,overcast clouds,-7.91,39.67,Bustani B&B
67,Giyani,ZA,73.35,broken clouds,-23.3,30.72,Kulani Country Lodge
70,Avarua,CK,73.4,overcast clouds,-21.21,-159.78,Paradise Inn
73,Ancud,CL,72.0,clear sky,-41.87,-73.82,Hotel Arena Gruesa
74,Lorengau,PG,80.96,few clouds,-2.02,147.27,Lorengau Harbourside Hotel
80,Olinda,BR,84.2,scattered clouds,-8.01,-34.86,Hotel 5 Sóis
81,Ygatimi,PY,84.76,broken clouds,-24.08,-55.5,
84,Wajid,SO,78.89,few clouds,3.81,43.25,Hotel Haji Aden Yare
88,Kavieng,PG,83.08,broken clouds,-2.57,150.8,Nusa Island Retreat
94,Puerto Lempira,HN,83.61,light rain,15.27,-83.77,Hotel Yu baiwan
95,Guerrero Negro,MX,77.58,scattered clouds,27.98,-114.06,"Casa Laguna, Bed & Breakfast"
100,Mount Isa,AU,71.6,clear sky,-20.73,139.5,ibis Styles Mt Isa Verona
104,Opuwo,,77.59,light rain,-18.06,13.84,ABBA Guesthouse
105,Vanimo,PG,77.95,light rain,-2.67,141.3,Vahmoneh Lodge Vanimo
107,Ixtapa,MX,86.0,clear sky,20.7,-105.2,Container Inn Puerto Vallarta
112,Matara,LK,77.92,scattered clouds,5.95,80.54,Amaloh Boutique Resort
114,Atuona,PF,78.31,few clouds,-9.8,-139.03,Villa Enata
115,Tshikapa,CD,73.83,moderate rain,-6.42,20.8,Hôtel Tshia-Muntu de Tshikapa
120,The Valley,AI,87.8,haze,18.22,-63.06,CeBlue Villas & Beach Resort
131,Acapulco,MX,87.8,broken clouds,16.86,-99.89,HS Hotsson Smart Acapulco
132,Esperance,AU,71.6,overcast clouds,-33.87,121.9,Hospitality Esperance
136,Bandarbeyla,SO,77.76,broken clouds,9.49,50.81,REER XOOSHLE GROUP
137,Faanui,PF,78.64,scattered clouds,-16.48,-151.75,Bora-Bora Pearl Beach Resort & Spa
142,Kattivakkam,IN,77.0,mist,13.22,80.32,St. Joseph Thirumana mandapam
143,Labuhan,ID,75.13,moderate rain,-6.88,112.21,bador sepret
147,Umm Lajj,SA,78.87,clear sky,25.02,37.27,Moon light Furnished Units
148,Touros,BR,86.0,scattered clouds,-5.2,-35.46,INN NEW HORIZON
153,Dovers,VC,78.8,broken clouds,12.88,-61.18,Ocean Breeze
154,Pobe,BJ,78.37,scattered clouds,6.98,2.66,Hôtel Le Pacha
155,Inhambane,MZ,77.0,scattered clouds,-23.86,35.38,Oceano
156,Pattani,TH,75.2,broken clouds,6.75,100.42,inesthongkam
160,Georgetown,MY,75.2,light rain,5.41,100.34,Cititel Penang
161,Dingle,PH,75.65,moderate rain,11.0,122.67,Camp Pasica
175,Port Blair,IN,80.22,few clouds,11.67,92.75,Fortune Resort Bay Island
180,Huntington Beach,US,71.6,haze,33.66,-118.0,Kimpton Shorebreak Huntington Beach Resort
188,Teahupoo,PF,82.4,few clouds,-17.83,-149.27,Vanira Lodge
189,Pacific Grove,US,72.0,clear sky,36.62,-121.92,Lovers Point Inn
193,Matay,EG,74.57,few clouds,28.42,30.78,Nag Aespen
194,Sorong,ID,80.96,broken clouds,-0.88,131.25,The Waigo Hotel
195,Pedernales,DO,86.0,broken clouds,18.04,-71.74,Hotel Costa Marina
198,Adrar,MR,89.38,overcast clouds,20.5,-10.07,
202,Bilma,NE,75.83,clear sky,18.69,12.92,Expeditions Ténére voyages
207,Omboue,GA,77.7,overcast clouds,-1.57,9.26,Hotel Olako
208,Taoudenni,ML,84.07,overcast clouds,22.68,-3.98,
214,Maiduguri,NG,83.68,clear sky,11.85,13.16,College of Nursing & Midwifery Female's Hostel
215,Mangai,CD,75.6,broken clouds,-4.05,19.53,
216,Ambilobe,MG,73.09,broken clouds,-13.2,49.05,Hôtel & Restaurant DIANA Ambilobe
218,Eyl,SO,79.93,scattered clouds,7.98,49.82,Amiin Hotel
230,Garowe,SO,78.49,clear sky,8.41,48.48,Curubo Hotel
232,Vallenar,CL,83.23,clear sky,-28.57,-70.76,Humacao Bed & Breakfast
237,Hilo,US,80.01,clear sky,19.73,-155.09,Hilo Hawaiian Hotel
239,Aswan,EG,81.64,clear sky,24.09,32.91,Nuba Nile
240,Clovis,US,71.01,clear sky,36.83,-119.7,"Homewood Suites by Hilton Fresno Airport/Clovis, CA"
241,Karaton,ID,81.0,mist,-6.34,106.1,Parkir Mobil Wisata CAS Water Park
243,Siparia,TT,88.0,light rain,10.13,-61.5,Brook Gardens
245,Salalah,OM,77.0,clear sky,17.02,54.09,HAMDAN PLAZA HOTEL
247,General Pico,AR,77.77,clear sky,-35.66,-63.76,Hotel Malargue
250,Hithadhoo,MV,83.8,light rain,-0.6,73.08,Scoop Guest House
251,Parauna,BR,81.66,moderate rain,-16.95,-50.45,Hotel Serras de Paraúna
256,Ca Mau,VN,76.17,light rain,9.18,105.15,Khách Sạn Mường Thanh Luxury Cà Mau
258,Makakilo City,US,77.0,clear sky,21.35,-158.09,Marriott's Ko Olina Beach Club
263,Oranjestad,AW,84.2,shower rain,12.52,-70.03,Divi Village Golf & Beach Resort
265,San Andres,CO,86.0,broken clouds,12.58,-81.7,Hotel Arena Blanca
267,Alta Floresta,BR,87.8,broken clouds,-9.88,-56.09,Floresta Amazonica Hotel
269,Hambantota,LK,79.75,scattered clouds,6.12,81.12,Bungalow 63
271,Otavi,,82.8,light rain,-19.65,17.33,Stop 'n Stay Otavi Rest Camp
272,San Cristobal,VE,87.8,scattered clouds,7.77,-72.22,Pirineos
273,Benghazi,LY,70.83,clear sky,32.12,20.07,Tibesti Hotel
274,Sola,VU,82.4,broken clouds,-13.88,167.55,Ulkel Guest House
275,Padang,ID,78.08,moderate rain,-0.95,100.35,Mercure Padang
276,Vao,NC,73.22,broken clouds,-22.67,167.48,Hotel Kou-Bugny
280,Shirgaon,IN,79.11,clear sky,19.7,72.7,LAXMI GARDEN BEACH RESORT
283,Vega De Alatorre,MX,77.29,clear sky,20.03,-96.63,Hotel Deluxe
284,Naya Bazar,IN,71.6,scattered clouds,27.13,88.27,Club Mahindra Baiguney
285,Yanam,IN,75.99,clear sky,16.73,82.22,The Regency Hotel
286,Tiznit,MA,73.53,clear sky,29.58,-9.5,
289,Kapit,MY,74.19,overcast clouds,2.02,112.93,Hotel Meligai Kapit
293,Beira,MZ,77.0,few clouds,-19.84,34.84,Beira Terrace Hotel
298,Mwinilunga,ZM,71.04,broken clouds,-11.74,24.43,Kwakuwahi Lodge
299,Vila Velha,BR,73.4,light rain,-20.33,-40.29,Hotel Vitória Palace
301,Guymon,US,73.4,clear sky,36.68,-101.48,Super 8 Guymon
302,Trairi,BR,86.04,broken clouds,-3.28,-39.27,Pousada Field Lilies - Trairi
303,Puerto Santander,CO,87.8,scattered clouds,8.36,-72.41,
305,Minbu,MM,77.52,broken clouds,20.18,94.88,Kaung Thar Guest House - Burmese Only
307,Ugoofaaru,MV,82.96,scattered clouds,5.67,73.0,Ungoofaaru Inn
309,Divo,CI,76.03,light rain,5.84,-5.36,Hôtel IROKO
315,Artigas,UY,72.46,clear sky,-30.4,-56.47,Hotel Casino San Eugenio del Cuareim
321,Fare,PF,79.25,few clouds,-16.7,-151.02,Maitai Lapita Village Huahine
323,Buin,CL,86.0,clear sky,-33.73,-70.75,Paihuen
324,Ocos,GT,89.6,few clouds,14.51,-92.19,La Bajadita
325,Dicabisagan,PH,75.94,light rain,17.08,122.42,Nancy Montanes Bernardo
326,Tiarei,PF,82.4,few clouds,-17.53,-149.33,Le Rocher de Tahiti
331,Kibara,TZ,73.4,few clouds,-2.15,33.45,
333,High Rock,BS,82.4,shower rain,26.62,-78.28,Ocean Pearl Bonefishing Resort
341,Malakal,SS,79.9,few clouds,9.53,31.66,Nile Palace Hotel
343,Maltahohe,,78.33,broken clouds,-24.83,16.98,Maltahöhe Hotel
345,Kukshi,IN,76.01,clear sky,22.2,74.75,City Pride Hotel
348,Turbana,CO,82.4,shower rain,10.27,-75.44,Cartagena Hills
358,Trelew,AR,84.67,clear sky,-43.25,-65.31,Hotel Touring Club
359,Kampot,KH,78.8,moderate rain,10.62,104.18,Champa Lodge
360,Bubaque,GW,85.55,broken clouds,11.28,-15.83,"Casa Dora, Bubaque"
361,Tessalit,ML,84.78,scattered clouds,20.2,1.01,
363,Luganville,VU,75.2,broken clouds,-15.53,167.17,The Espiritu Hotel
364,Khudumelapye,BW,81.37,scattered clouds,-23.88,24.75,
366,Santa Maria,BR,72.72,broken clouds,-29.68,-53.81,Hotel Morotin
372,Yangambi,CD,72.18,light rain,0.81,24.43,
375,Villa Carlos Paz,AR,80.01,clear sky,-31.42,-64.5,Monte Carlo
376,Bengkulu,ID,76.59,moderate rain,-3.8,102.27,Grage Hotel Bengkulu
378,Candelaria,PH,78.01,light rain,13.93,121.42,Casa de Provincia
381,Buraydah,SA,71.6,clear sky,26.33,43.98,Mövenpick Hotel Qassim
383,Honiara,SB,75.2,few clouds,-9.43,159.95,Heritage Park Hotel
386,Muisne,EC,84.2,broken clouds,0.6,-80.03,Quinta Samay
389,Takoradi,GH,79.83,scattered clouds,4.88,-1.76,Raybow International Hotel
399,Ponta Do Sol,PT,75.0,few clouds,32.67,-17.1,Hotel do Campo
400,Los Llanos De Aridane,ES,77.0,clear sky,28.66,-17.92,Valle Aridane
404,Port Hedland,AU,75.2,clear sky,-20.32,118.57,The Esplanade Hotel
405,Saint-Georges,GD,78.8,light intensity shower rain,12.06,-61.75,Siesta Hotel
407,Jos,NG,73.4,clear sky,9.92,8.9,Silk Suites
411,Bougouni,ML,84.56,few clouds,11.42,-7.48,Non Stop
413,Gambela,ET,73.54,light rain,8.25,34.58,Solomon Debebe Hotel
416,Uarini,BR,73.4,overcast clouds,-2.99,-65.11,
417,Isangel,VU,74.8,broken clouds,-19.55,169.27,Volcano Sea View Tree House
419,Banting,MY,77.0,scattered clouds,2.82,101.5,Hotel Intan Jugra
420,Mount Darwin,ZW,76.26,few clouds,-16.77,31.58,
421,Kutum,SD,78.93,clear sky,14.2,24.67,Dibbo areaمنطقة دبو
422,Mocuba,MZ,73.47,light rain,-16.84,36.99,Phama Lodge
426,Trincomalee,LK,81.28,overcast clouds,8.57,81.23,Welcombe Hotel
427,Namatanai,PG,80.2,overcast clouds,-3.67,152.43,Namatanai Hotel
430,Thinadhoo,MV,82.94,moderate rain,0.53,72.93,
435,Noumea,NC,71.6,clear sky,-22.28,166.46,Hôtel Le Lagon
436,Rincon,US,73.4,overcast clouds,32.3,-81.24,Bent tree subdivision
437,Marawi,PH,75.0,light rain,8.0,124.29,Derogongan Residence
438,Pemba,MZ,77.0,broken clouds,-12.97,40.52,Guesthouse Samotina
439,Asfi,MA,70.65,clear sky,32.3,-9.24,Hôtel Abda
442,Kathu,TH,82.99,scattered clouds,7.92,98.33,Novotel Phuket Resort
443,Bull Savanna,JM,84.02,broken clouds,17.89,-77.59,Big Red's
446,Balad,IQ,73.63,scattered clouds,34.02,44.15,رضاوي زنوبة
447,Barentu,ER,80.76,scattered clouds,15.11,37.59,
448,Sibolga,ID,77.83,light rain,1.74,98.78,Hotel Syariah CN Darussalam
452,Talara,PE,75.2,clear sky,-4.58,-81.27,Hostal Oro Negro
453,Toma,BF,87.96,clear sky,12.77,-2.88,Auberge de l'amitié
455,Kouroussa,GN,81.88,scattered clouds,10.65,-9.88,Hotel Tando Plus
456,Harper,LR,79.2,broken clouds,4.38,-7.72,Screensaver
457,Caravelas,BR,73.71,light rain,-17.71,-39.25,Pousada dos Navegantes
459,Puerto Carreno,CO,85.84,overcast clouds,6.19,-67.49,Casa Hotel Victoria
464,Maningrida,AU,79.27,clear sky,-12.07,134.27,Dhukurrdji Lodge
467,Bondoukou,CI,79.59,broken clouds,8.03,-2.8,Prestige Hotel
469,Trinidad,BO,87.8,overcast clouds,-14.83,-64.9,Hotel Piesta
473,Tura,IN,71.91,moderate rain,25.52,90.22,Hotel RIKMAN Continental
474,Sinnamary,GF,86.65,light rain,5.38,-52.95,ALETHEIA Appartement Sinnamary
475,Soyo,AO,78.48,scattered clouds,-6.13,12.37,Hotel Mpampa
478,Ontario,US,82.0,few clouds,34.06,-117.65,DoubleTree by Hilton Hotel Ontario Airport
482,Karratha,AU,70.0,clear sky,-20.74,116.85,ibis Styles Karratha
483,Daulatpur,PK,73.4,haze,26.5,67.97,SHAHJEE HOUSE
484,Namibe,AO,72.7,few clouds,-15.2,12.15,Hotel Chik Chik Namibe
487,Yucaipa,US,84.2,clear sky,34.03,-117.04,Yucaipa Regional Park
488,Gualeguay,AR,72.23,clear sky,-33.14,-59.31,Cabañas Nuestro Refugio
491,Alofi,NU,73.4,light rain,-19.06,-169.92,Taloa Heights
495,Ambon,ID,82.0,light rain,-3.7,128.18,Swiss-Belhotel Ambon
500,Road Town,VG,86.0,scattered clouds,18.42,-64.62,"ZINGARA 76ft Catamaran, full crew-all included"
503,Port-Gentil,GA,82.4,scattered clouds,-0.72,8.78,Fengshui Residence
509,Sao Joao Da Barra,BR,71.6,overcast clouds,-21.64,-41.05,Pousada Porto De Canoas
510,Buenaventura,CO,70.0,moderate rain,3.88,-77.03,VILLA FAMILIAR EN LA BARRA / GRACE VILLAGES
511,Aripuana,BR,81.81,moderate rain,-9.17,-60.63,
512,Tezu,IN,75.58,overcast clouds,27.92,96.17,Circuit House
516,Kudahuvadhoo,MV,83.32,scattered clouds,2.67,72.89,Kudahuvadhoo Retreat
518,Birnin Kebbi,NG,87.22,scattered clouds,12.45,4.2,Saffar Guest Inn Ltd
525,Kisanga,TZ,79.86,broken clouds,-7.44,37.7,
527,Morgan Hill,US,73.0,clear sky,37.13,-121.65,Residence Inn by Marriott San Jose South/Morgan Hill
530,Gamba,GA,77.52,overcast clouds,-2.65,10.0,
538,Nanakuli,US,77.0,clear sky,21.39,-158.15,Camp Pālehua
540,Bodden Town,KY,88.0,few clouds,19.28,-81.25,Will T Place
541,Sulangan,PH,82.72,moderate rain,11.14,123.72,Maia's Beach Resort
546,Lakhimpur,IN,72.21,clear sky,27.95,80.77,Hotel Surabhi
547,Samarai,PG,80.55,broken clouds,-10.62,150.67,Nuli Sapi
549,Kita,ML,87.15,scattered clouds,13.03,-9.49,Hôtel Nelson Mandela
552,Sigli,ID,79.59,light rain,5.38,95.96,Hotel Riza
553,Manicore,BR,87.8,broken clouds,-5.81,-61.3,Pousada da wanda
554,Kitgum,UG,72.61,broken clouds,3.28,32.89,Jaflo Gardens Hotel
556,Mogadishu,SO,80.44,light rain,2.04,45.34,Hotel Juba
557,Nakhon Phanom,TH,71.13,clear sky,17.33,104.42,ป่ายางรีสอร์ท
561,Manuk Mangkaw,PH,81.5,overcast clouds,4.8,119.85,
564,Ransang,PH,78.58,overcast clouds,8.96,117.58,
567,Dwarka,IN,82.53,clear sky,22.24,68.97,Hotel Narayan Avezika Comfort
571,Bathsheba,BB,84.2,scattered clouds,13.22,-59.52,Atlantis Hotel
573,Lodja,CD,73.2,scattered clouds,-3.48,23.43,
578,Puerto Madryn,AR,84.09,clear sky,-42.77,-65.04,Hotel Tolosa
580,Marsh Harbour,BS,79.99,moderate rain,26.54,-77.06,Abaco Beach Resort
581,San Fernando,PH,77.0,broken clouds,15.03,120.69,Maharlika Hostel
583,Chirongui,YT,77.0,few clouds,-12.93,45.15,La Villa Mahatsara
588,Ahuimanu,US,78.8,few clouds,21.44,-157.84,Paradise Bay Resort
596,Mlonggo,ID,77.5,moderate rain,-6.53,110.7,Asia Metal Art
597,San Quintin,MX,74.37,broken clouds,30.48,-115.95,Old Mill Hotel
602,Carutapera,BR,87.53,few clouds,-1.2,-46.02,Lidera
603,Caramay,PH,78.89,light rain,10.18,119.24,Peace and Love Beach Club
612,Batticaloa,LK,81.03,light rain,7.71,81.69,Grand Star Guest House
616,Manggar,ID,79.3,light rain,-2.88,108.27,Guest Hotel
618,Qandala,SO,80.28,scattered clouds,11.47,49.87,
620,Sao Jose Da Coroa Grande,BR,81.79,overcast clouds,-8.9,-35.15,Crôa Mares Hotel
624,Poum,NC,77.2,broken clouds,-20.23,164.02,Gîte kajeon
625,Niquero,CU,85.12,light rain,20.04,-77.58,
626,Ribeira Brava,PT,75.0,few clouds,32.65,-17.07,Hotel do Campo
627,Mana,GF,87.24,broken clouds,5.66,-53.78,LE SAMANA
628,Aguimes,ES,82.4,clear sky,27.91,-15.45,Hotel Villa de Aguimes
629,Cabo Rojo,PR,89.01,light rain,18.09,-67.15,Hotel Perichi's
634,Cayenne,GF,89.6,light rain,4.93,-52.33,Hôtel Le Dronmi
635,Kieta,PG,78.58,broken clouds,-6.22,155.63,
636,Itabirito,BR,71.6,broken clouds,-20.25,-43.8,Hotel Pousada de Minas
637,Moerai,PF,73.56,overcast clouds,-22.43,-151.33,Le Manotel
640,Parrita,CR,77.0,scattered clouds,9.52,-84.32,Beso del Viento
641,Sao Gabriel Da Cachoeira,BR,75.2,moderate rain,-0.13,-67.09,Alarne - Área De Lazer Do Alto Rio Negro
645,Duekoue,CI,82.42,broken clouds,6.75,-7.35,Résidence Doué
647,Tsumeb,,84.22,light rain,-19.23,17.72,TeaterHuis Guest House
650,Hobyo,SO,82.0,moderate rain,5.35,48.53,Osmani Hotel
651,Pringsewu,ID,74.12,heavy intensity rain,-5.36,104.97,Urban Style by Front One
652,Santa Rosa,PH,80.01,broken clouds,14.31,121.11,Erlyn’s Sta Rosa City Home
655,Yilan,TW,71.6,few clouds,24.76,121.75,Dar Chen Hotel
656,Doka,SD,82.13,overcast clouds,13.52,35.77,
658,Doha,QA,82.4,clear sky,25.29,51.53,Doha Marriott Hotel
660,Nguru,NG,86.38,few clouds,12.88,10.45,Government Lodge
661,Manokwari,ID,80.33,light rain,-0.87,134.08,Swiss Belhotel Manokwari
663,Itamaraca,BR,84.2,scattered clouds,-7.75,-34.83,Special K's Bed & Breakfast
665,Sur,OM,71.37,clear sky,22.57,59.53,Sur Plaza Hotel
666,Buriti Alegre,BR,83.34,light rain,-18.14,-49.04,Andrey Hotel Churrascaria
669,Tombouctou,ML,88.74,overcast clouds,20.0,-3.0,
671,Maceio,BR,86.0,scattered clouds,-9.67,-35.74,Mercure Maceio Pajucara Hotel
676,Edgewater,US,82.99,broken clouds,28.99,-80.9,Islander Beach Resort
678,Baixo Guandu,BR,70.92,light rain,-19.52,-41.02,Hotel e Restaurante Barbosa
679,San Jose,US,71.01,haze,37.34,-121.89,The Westin San Jose
682,Manaus,BR,89.6,scattered clouds,-3.1,-60.02,Hotel do Largo
683,Banda Aceh,ID,80.6,light rain,5.56,95.32,OYO 884 Rumoh PMI Hotel
686,Myitkyina,MM,70.81,light rain,25.38,97.4,Shwe Phyu Hotel
690,Palmas,BR,84.2,thunderstorm,-10.21,-48.36,Hotel Lago da Palma
